,station.id,station.name,latitude,longitude,year,index,boro
0,72,W 52 St & 11 Ave,40.76727216,-73.99392888,2013,1,Manhattan
1,79,Franklin St & W Broadway,40.71911552,-74.00666661,2013,2,Manhattan
2,82,St James Pl & Pearl St,40.71117416,-74.00016545,2013,3,Manhattan
3,83,Atlantic Ave & Fort Greene Pl,40.68382604,-73.97632328,2013,4,Brooklyn
4,116,W 17 St & 8 Ave,40.74177603,-74.00149746,2013,5,Manhattan
5,119,Park Ave & St Edwards St,40.69608941,-73.97803415,2013,6,Brooklyn
6,120,Lexington Ave & Classon Ave,40.68676793,-73.95928168,2013,7,Brooklyn
7,127,Barrow St & Hudson St,40.73172428,-74.00674436,2013,8,Manhattan
8,128,MacDougal St & Prince St,40.72710258,-74.00297088,2013,9,Manhattan
9,137,E 56 St & Madison Ave,40.761628,-73.972924,2013,10,Manhattan
10,143,Clinton St & Joralemon St,40.69239502,-73.99337909,2013,11,Brooklyn
11,144,Nassau St & Navy St,40.69839895,-73.98068914,2013,12,Kings County
12,146,Hudson St & Reade St,40.71625008,-74.0091059,2013,13,Manhattan
13,147,Greenwich St & Warren St,40.71542197,-74.01121978,2013,14,New York
14,150,E 2 St & Avenue C,40.7208736,-73.98085795,2013,15,Manhattan
15,151,Cleveland Pl & Spring St,40.7221037867,-73.9972490072,2013,16,Manhattan
16,152,Warren St & Church St,40.71473993,-74.00910627,2013,17,Manhattan
17,153,E 40 St & 5 Ave,40.752062307,-73.9816324043,2013,18,Manhattan
18,157,Henry St & Atlantic Ave,40.69089272,-73.99612349,2013,19,Brooklyn
19,160,E 37 St & Lexington Ave,40.748238,-73.978311,2013,20,Manhattan
20,161,LaGuardia Pl & W 3 St,40.72917025,-73.99810231,2013,21,Manhattan
21,164,E 47 St & 2 Ave,40.75323098,-73.97032517,2013,22,Manhattan
22,167,E 39 St & 3 Ave,40.7489006,-73.97604882,2013,23,Manhattan
23,168,W 18 St & 6 Ave,40.73971301,-73.99456405,2013,24,Manhattan
24,173,Broadway & W 49 St,40.760683271,-73.9845272899,2013,25,Manhattan
25,174,E 25 St & 1 Ave,40.7381765,-73.97738662,2013,26,Manhattan
26,195,Liberty St & Broadway,40.70905623,-74.01043382,2013,27,Manhattan
27,212,W 16 St & The High Line,40.74334935,-74.00681753,2013,28,Manhattan
28,216,Columbia Heights & Cranberry St,40.70037867,-73.99548059,2013,29,Kings County
29,217,Old Fulton St,40.70277159,-73.99383605,2013,30,Brooklyn
30,223,W 13 St & 7 Ave,40.73781509,-73.99994661,2013,31,Manhattan
31,224,Spruce St & Nassau St,40.71146364,-74.00552427,2013,32,New York
32,225,W 14 St & The High Line,40.74195138,-74.00803013,2013,33,Manhattan
33,228,E 48 St & 3 Ave,40.7546011026,-73.971878855,2013,34,Manhattan
34,229,Great Jones St,40.72743423,-73.99379025,2013,35,Manhattan
35,232,Cadman Plaza E & Tillary St,40.69597683,-73.99014892,2013,36,Brooklyn
36,233,Cadman Plaza W & Pierrepont St,40.6947570136,-73.9905273914,2013,37,Brooklyn
37,236,St Marks Pl & 2 Ave,40.7284186,-73.98713956,2013,38,East Village
38,237,E 11 St & 2 Ave,40.73047309,-73.98672378,2013,39,Manhattan
39,238,Bank St & Washington St,40.7361967,-74.00859207,2013,40,Manhattan
40,239,Willoughby St & Fleet St,40.69196566,-73.9813018,2013,41,Brooklyn
41,241,DeKalb Ave & S Portland Ave,40.68981035,-73.97493121,2013,42,Brooklyn
42,242,Carlton Ave & Flushing Ave,40.697787,-73.973736,2013,43,Kings County
43,243,Fulton St & Rockwell Pl,40.688226,-73.979382,2013,44,Brooklyn
44,244,Willoughby Ave & Hall St,40.69196035,-73.96536851,2013,45,Brooklyn
45,245,Myrtle Ave & St Edwards St,40.69327018,-73.97703874,2013,46,Brooklyn
46,247,Perry St & Bleecker St,40.73535398,-74.00483091,2013,47,Manhattan
47,248,Laight St & Hudson St,40.72185379,-74.00771779,2013,48,Manhattan
48,249,Harrison St & Hudson St,40.71870987,-74.0090009,2013,49,Manhattan
49,250,Lafayette St & Jersey St,40.72456089,-73.99565293,2013,50,Manhattan
50,251,Mott St & Prince St,40.72317958,-73.99480012,2013,51,Manhattan
51,252,MacDougal St & Washington Sq,40.73226398,-73.99852205,2013,52,Manhattan
52,253,W 13 St & 5 Ave,40.73543934,-73.99453948,2013,53,Manhattan
53,254,W 11 St & 6 Ave,40.73532427,-73.99800419,2013,54,Manhattan
54,257,Lispenard St & Broadway,40.71939226,-74.00247214,2013,55,Manhattan
55,258,DeKalb Ave & Vanderbilt Ave,40.68940747,-73.96885458,2013,56,Brooklyn
56,259,South St & Whitehall St,40.70122128,-74.01234218,2013,57,New York
57,260,Broad St & Bridge St,40.70365182,-74.01167797,2013,58,Manhattan
58,261,Johnson St & Gold St,40.69474881,-73.98362464,2013,59,Brooklyn
59,262,Washington Park,40.6917823,-73.9737299,2013,60,Brooklyn
60,263,Elizabeth St & Hester St,40.71729,-73.996375,2013,61,Manhattan
61,264,Maiden Ln & Pearl St,40.70706456,-74.00731853,2013,62,Manhattan
62,265,Stanton St & Chrystie St,40.72229346,-73.99147535,2013,63,New York
63,266,Avenue D & E 8 St,40.72368361,-73.97574813,2013,64,Manhattan
64,267,Broadway & W 36 St,40.75097711,-73.98765428,2013,65,Manhattan
65,268,Howard St & Centre St,40.71910537,-73.99973337,2013,66,Manhattan
66,270,Adelphi St & Myrtle Ave,40.69308257,-73.97178913,2013,67,Brooklyn
67,274,Lafayette Ave & Fort Greene Pl,40.68691865,-73.976682,2013,68,Brooklyn
68,275,Washington Ave & Greene Ave,40.68650065,-73.96563307,2013,69,Brooklyn
69,276,Duane St & Greenwich St,40.71748752,-74.0104554,2013,70,Manhattan
70,278,Concord St & Bridge St,40.69766564,-73.98476437,2013,71,Brooklyn
71,279,Peck Slip & Front St,40.707873,-74.00167,2013,72,Manhattan
72,280,E 10 St & 5 Ave,40.73331967,-73.99510132,2013,73,Manhattan
73,281,Grand Army Plaza & Central Park S,40.7643971,-73.97371465,2013,74,Manhattan
74,282,Kent Ave & S 11 St,40.70827295,-73.96834101,2013,75,Brooklyn
75,284,Greenwich Ave & 8 Ave,40.7390169121,-74.0026376103,2013,76,Manhattan
76,285,Broadway & E 14 St,40.73454567,-73.99074142,2013,77,Manhattan
77,289,Monroe St & Classon Ave,40.6845683,-73.95881081,2013,78,Brooklyn
78,291,Madison St & Montgomery St,40.713126,-73.984844,2013,79,Manhattan
79,293,Lafayette St & E 8 St,40.73028666,-73.9907647,2013,80,Manhattan
80,294,Washington Square E,40.73049393,-73.9957214,2013,81,Manhattan
81,295,Pike St & E Broadway,40.71406667,-73.99293911,2013,82,Manhattan
82,296,Division St & Bowery,40.71413089,-73.9970468,2013,83,Manhattan
83,297,E 15 St & 3 Ave,40.734232,-73.986923,2013,84,Manhattan
84,298,3 Ave & Schermerhorn St,40.68683208,-73.9796772,2013,85,Kings County
85,300,Shevchenko Pl & E 7 St,40.728145,-73.990214,2013,86,Manhattan
86,301,E 2 St & Avenue B,40.72217444,-73.98368779,2013,87,Manhattan
87,302,Avenue D & E 3 St,40.72082834,-73.97793172,2013,88,Manhattan
88,303,Mercer St & Spring St,40.72362738,-73.99949601,2013,89,Manhattan
89,304,Broadway & Battery Pl,40.70463334,-74.01361706,2013,90,Manhattan
90,305,E 58 St & 3 Ave,40.76095756,-73.96724467,2013,91,Manhattan
91,306,Cliff St & Fulton St,40.70823502,-74.00530063,2013,92,Manhattan
92,307,Canal St & Rutgers St,40.71427487,-73.98990025,2013,93,Manhattan
93,308,St James Pl & Oliver St,40.71307916,-73.99851193,2013,94,Manhattan
94,309,Murray St & West St,40.7149787,-74.013012,2013,95,Manhattan
95,310,State St & Smith St,40.68926942,-73.98912867,2013,96,Brooklyn
96,311,Norfolk St & Broome St,40.7172274,-73.98802084,2013,97,Manhattan
97,312,Allen St & E Houston St,40.722055,-73.989111,2013,98,Manhattan
98,313,Washington Ave & Park Ave,40.69610226,-73.96751037,2013,99,Kings County
99,314,Cadman Plaza West & Montague St,40.69383,-73.990539,2013,100,Kings County
100,315,South St & Gouverneur Ln,40.70355377,-74.00670227,2013,101,New York
101,316,Fulton St & William St,40.70955958,-74.00653609,2013,102,Manhattan
102,317,E 6 St & Avenue B,40.72453734,-73.98185424,2013,103,Manhattan
103,319,Fulton St & Broadway,40.711066,-74.009447,2013,104,New York
104,320,Leonard St & Church St,40.717571,-74.005549,2013,105,Manhattan
105,321,Cadman Plaza E & Red Cross Pl,40.69991755,-73.98971773,2013,106,Brooklyn
106,322,Clinton St & Tillary St,40.696192,-73.991218,2013,107,Kings County
107,323,Lawrence St & Willoughby St,40.69236178,-73.98631746,2013,108,Brooklyn
108,324,DeKalb Ave & Hudson Ave,40.689888,-73.981013,2013,109,Kings County
109,325,E 19 St & 3 Ave,40.73624527,-73.98473765,2013,110,Manhattan
110,326,E 11 St & 1 Ave,40.72953837,-73.98426726,2013,111,Manhattan
111,327,Vesey Pl & River Terrace,40.7153379,-74.01658354,2013,112,Manhattan
112,328,Watts St & Greenwich St,40.72405549,-74.00965965,2013,113,Manhattan
113,329,Greenwich St & N Moore St,40.72043411,-74.01020609,2013,114,Manhattan
114,330,Reade St & Broadway,40.71450451,-74.00562789,2013,115,Manhattan
115,331,Pike St & Monroe St,40.71173107,-73.99193043,2013,116,Manhattan
116,332,Cherry St,40.71219906,-73.97948148,2013,117,Manhattan
117,334,W 20 St & 7 Ave,40.74238787,-73.99726235,2013,118,Manhattan
118,335,Washington Pl & Broadway,40.72903917,-73.99404649,2013,119,New York
119,336,Sullivan St & Washington Sq,40.73047747,-73.99906065,2013,120,Manhattan
120,337,Old Slip & Front St,40.7037992,-74.00838676,2013,121,New York
121,339,Avenue D & E 12 St,40.72580614,-73.97422494,2013,122,East Village
122,340,Madison St & Clinton St,40.71269042,-73.98776323,2013,123,Manhattan
123,341,Stanton St & Mangin St,40.71782143,-73.97628939,2013,124,New York
124,342,Columbia St & Rivington St,40.71739973,-73.98016555,2013,125,NY
125,343,Clinton Ave & Flushing Ave,40.69794,-73.96986848,2013,126,Kings County
126,344,Monroe St & Bedford Ave,40.6851443,-73.95380904,2013,127,Brooklyn
127,345,W 13 St & 6 Ave,40.73649403,-73.99704374,2013,128,Manhattan
128,346,Bank St & Hudson St,40.73652889,-74.00618026,2013,129,Manhattan
129,347,Greenwich St & W Houston St,40.728846,-74.008591,2013,130,Manhattan
130,348,W Broadway & Spring St,40.72490985,-74.00154702,2013,131,Manhattan
131,349,Rivington St & Ridge St,40.71850211,-73.98329859,2013,132,Manhattan
132,350,Clinton St & Grand St,40.71559509,-73.9870295,2013,133,Manhattan
133,351,Front St & Maiden Ln,40.70530954,-74.00612572,2013,134,Manhattan
134,352,W 56 St & 6 Ave,40.76340613,-73.97722479,2013,135,Manhattan
135,353,S Portland Ave & Hanson Pl,40.68539567,-73.97431458,2013,136,Brooklyn
136,354,Emerson Pl & Myrtle Ave,40.69363137,-73.96223558,2013,137,Brooklyn
137,355,Bayard St & Baxter St,40.71602118,-73.99974372,2013,138,Manhattan
138,356,Bialystoker Pl & Delancey St,40.71622644,-73.98261206,2013,139,Manhattan
139,357,E 11 St & Broadway,40.73261787,-73.99158043,2013,140,Manhattan
140,358,Christopher St & Greenwich St,40.73291553,-74.00711384,2013,141,Manhattan
141,359,E 47 St & Park Ave,40.75510267,-73.97498696,2013,142,Manhattan
142,360,William St & Pine St,40.70717936,-74.00887308,2013,143,Manhattan
143,361,Allen St & Hester St,40.71605866,-73.99190759,2013,144,Manhattan
144,362,Broadway & W 37 St,40.75172632,-73.98753523,2013,145,Manhattan
145,363,West Thames St,40.70834698,-74.01713445,2013,146,Manhattan
146,364,Lafayette Ave & Classon Ave,40.68900443,-73.96023854,2013,147,Brooklyn
147,365,Fulton St & Grand Ave,40.68223166,-73.9614583,2013,148,Brooklyn
148,366,Clinton Ave & Myrtle Ave,40.693261,-73.968896,2013,149,Brooklyn
149,367,E 53 St & Lexington Ave,40.75828065,-73.97069431,2013,150,Manhattan
150,368,Carmine St & 6 Ave,40.73038599,-74.00214988,2013,151,Manhattan
151,369,Washington Pl & 6 Ave,40.73224119,-74.00026394,2013,152,Manhattan
152,372,Franklin Ave & Myrtle Ave,40.694528,-73.958089,2013,153,Brooklyn
153,373,Willoughby Ave & Walworth St,40.69331716,-73.95381995,2013,154,Brooklyn
154,375,Mercer St & Bleecker St,40.72679454,-73.99695094,2013,155,Manhattan
155,376,John St & William St,40.70862144,-74.00722156,2013,156,Manhattan
156,377,6 Ave & Canal St,40.72243797,-74.00566443,2013,157,New York
157,379,W 31 St & 7 Ave,40.749156,-73.9916,2013,158,Manhattan
158,380,W 4 St & 7 Ave S,40.73401143,-74.00293877,2013,159,Manhattan
159,382,University Pl & E 14 St,40.73492695,-73.99200509,2013,160,Manhattan
160,383,Greenwich Ave & Charles St,40.735238,-74.000271,2013,161,Manhattan
161,384,Fulton St & Washington Ave,40.683048,-73.964915,2013,162,Brooklyn
162,385,E 55 St & 2 Ave,40.75797322,-73.96603308,2013,163,Manhattan
163,386,Centre St & Worth St,40.71494807,-74.00234482,2013,164,Manhattan
164,387,Centre St & Chambers St,40.71273266,-74.0046073,2013,165,Manhattan
165,388,W 26 St & 10 Ave,40.749717753,-74.002950346,2013,166,Manhattan
166,389,Broadway & Berry St,40.71044554,-73.96525063,2013,167,Brooklyn
167,390,Duffield St & Willoughby St,40.69221589,-73.9842844,2013,168,Brooklyn
168,391,Clark St & Henry St,40.69760127,-73.99344559,2013,169,Brooklyn
169,392,Jay St & Tech Pl,40.695065,-73.987167,2013,170,Brooklyn
170,393,E 5 St & Avenue C,40.72299208,-73.97995466,2013,171,Manhattan
171,394,E 9 St & Avenue C,40.72521311,-73.97768752,2013,172,Manhattan
172,395,Bond St & Schermerhorn St,40.68807003,-73.98410637,2013,173,Brooklyn
173,396,Lefferts Pl & Franklin Ave,40.680342423,-73.9557689392,2013,174,Brooklyn
174,397,Fulton St & Clermont Ave,40.68415748,-73.96922273,2013,175,Brooklyn
175,398,Atlantic Ave & Furman St,40.69165183,-73.9999786,2013,176,Kings County
176,399,Lafayette Ave & St James Pl,40.68851534,-73.9647628,2013,177,Brooklyn
177,400,Pitt St & Stanton St,40.71926081,-73.98178024,2013,178,Manhattan
178,401,Allen St & Rivington St,40.72019576,-73.98997825,2013,179,Manhattan
179,402,Broadway & E 22 St,40.7403432,-73.98955109,2013,180,Manhattan
180,403,E 2 St & 2 Ave,40.72502876,-73.99069656,2013,181,Manhattan
181,405,Washington St & Gansevoort St,40.739323,-74.008119,2013,182,Manhattan
182,406,Hicks St & Montague St,40.69512845,-73.99595065,2013,183,Brooklyn
183,407,Henry St & Poplar St,40.700469,-73.991454,2013,184,Brooklyn
184,408,Market St & Cherry St,40.71076228,-73.99400398,2013,185,Manhattan
185,409,DeKalb Ave & Skillman St,40.6906495,-73.95643107,2013,186,Brooklyn
186,410,Suffolk St & Stanton St,40.72066442,-73.98517977,2013,187,Manhattan
187,411,E 6 St & Avenue D,40.72228087,-73.97668709,2013,188,Manhattan
188,412,Forsyth St & Canal St,40.7158155,-73.99422366,2013,189,Manhattan
189,414,Pearl St & Anchorage Pl,40.70281858,-73.98765762,2013,190,Brooklyn
190,415,Pearl St & Hanover Square,40.7047177,-74.00926027,2013,191,Manhattan
191,416,Cumberland St & Lafayette Ave,40.68753406,-73.97265183,2013,192,Brooklyn
192,417,Barclay St & Church St,40.71291224,-74.01020234,2013,193,Manhattan
193,418,Front St & Gold St,40.70224,-73.982578,2013,194,Kings County
194,419,Carlton Ave & Park Ave,40.69580705,-73.97355569,2013,195,Brooklyn
195,420,Clermont Ave & Lafayette Ave,40.68764484,-73.96968902,2013,196,Brooklyn
196,421,Clermont Ave & Park Ave,40.69573398,-73.97129668,2013,197,Brooklyn
197,422,W 59 St & 10 Ave,40.770513,-73.988038,2013,198,Manhattan
198,423,W 54 St & 9 Ave,40.76584941,-73.98690506,2013,199,Manhattan
199,426,West St & Chambers St,40.71754834,-74.01322069,2013,200,New York
200,427,Bus Slip & State St,40.701907,-74.013942,2013,201,New York
201,428,E 3 St & 1 Ave,40.72467721,-73.98783413,2013,202,Manhattan
202,430,York St & Jay St,40.7014851,-73.98656928,2013,203,Kings County
203,432,E 7 St & Avenue A,40.72621788,-73.98379855,2013,204,Manhattan
204,433,E 13 St & Avenue A,40.72955361,-73.98057249,2013,205,Manhattan
205,434,9 Ave & W 18 St,40.74317449,-74.00366443,2013,206,Manhattan
206,435,W 21 St & 6 Ave,40.74173969,-73.99415556,2013,207,Manhattan
207,436,Hancock St & Bedford Ave,40.68216564,-73.95399026,2013,208,Brooklyn
208,437,Macon St & Nostrand Ave,40.6809833854,-73.9500479759,2013,209,Brooklyn
209,438,St Marks Pl & 1 Ave,40.72779126,-73.98564945,2013,210,Manhattan
210,439,E 4 St & 2 Ave,40.7262807,-73.98978041,2013,211,Manhattan
211,440,E 45 St & 3 Ave,40.75255434,-73.97282625,2013,212,Manhattan
212,441,E 52 St & 2 Ave,40.756014,-73.967416,2013,213,Manhattan
213,442,W 27 St & 7 Ave,40.746647,-73.993915,2013,214,Manhattan
214,443,Bedford Ave & S 9 St,40.70853074,-73.96408963,2013,215,Brooklyn
215,444,Broadway & W 24 St,40.7423543,-73.98915076,2013,216,Manhattan
216,445,E 10 St & Avenue A,40.72740794,-73.98142006,2013,217,Manhattan
217,446,W 24 St & 7 Ave,40.74487634,-73.99529885,2013,218,Manhattan
218,447,8 Ave & W 52 St,40.76370739,-73.9851615,2013,219,Manhattan
219,448,W 37 St & 10 Ave,40.75660359,-73.9979009,2013,220,Manhattan
220,449,W 52 St & 9 Ave,40.76461837,-73.98789473,2013,221,Manhattan
221,450,W 49 St & 8 Ave,40.76227205,-73.98788205,2013,222,New York
222,453,W 22 St & 8 Ave,40.74475148,-73.99915362,2013,223,Manhattan
223,454,E 51 St & 1 Ave,40.75455731,-73.96592976,2013,224,Manhattan
224,455,1 Ave & E 44 St,40.75001986,-73.96905301,2013,225,Manhattan
225,456,E 53 St & Madison Ave,40.7597108,-73.97402311,2013,226,Manhattan
226,457,Broadway & W 58 St,40.76695317,-73.98169333,2013,227,Manhattan
227,458,11 Ave & W 27 St,40.751396,-74.005226,2013,228,Manhattan
228,459,W 20 St & 11 Ave,40.746745,-74.007756,2013,229,Manhattan
229,460,S 4 St & Wythe Ave,40.71285887,-73.96590294,2013,230,Brooklyn
230,461,E 20 St & 2 Ave,40.73587678,-73.98205027,2013,231,Manhattan
231,462,W 22 St & 10 Ave,40.74691959,-74.00451887,2013,232,Manhattan
232,463,9 Ave & W 16 St,40.74206539,-74.00443172,2013,233,Manhattan
233,465,Broadway & W 41 St,40.75513557,-73.98658032,2013,234,NY
234,466,W 25 St & 6 Ave,40.74395411,-73.99144871,2013,235,Manhattan
235,467,Dean St & 4 Ave,40.68312489,-73.97895137,2013,236,Kings County
236,468,Broadway & W 55 St,40.7652654,-73.98192338,2013,237,Manhattan
237,469,Broadway & W 53 St,40.76344058,-73.98268129,2013,238,Manhattan
238,470,W 20 St & 8 Ave,40.74345335,-74.00004031,2013,239,Manhattan
239,471,Grand St & Havemeyer St,40.71286844,-73.95698119,2013,240,Brooklyn
240,472,E 32 St & Park Ave,40.7457121,-73.98194829,2013,241,Manhattan
241,473,Rivington St & Chrystie St,40.72110063,-73.9919254,2013,242,New York
242,474,5 Ave & E 29 St,40.7451677,-73.98683077,2013,243,Manhattan
243,475,E 16 St & Irving Pl,40.73524276,-73.98758561,2013,244,Manhattan
244,476,E 31 St & 3 Ave,40.74394314,-73.97966069,2013,245,Manhattan
245,477,W 41 St & 8 Ave,40.75640548,-73.9900262,2013,246,Theater District
246,478,11 Ave & W 41 St,40.76030096,-73.99884222,2013,247,Manhattan
247,479,9 Ave & W 45 St,40.76019252,-73.9912551,2013,248,Manhattan
248,480,W 53 St & 10 Ave,40.76669671,-73.99061728,2013,249,Manhattan
249,481,S 3 St & Bedford Ave,40.71260486,-73.96264403,2013,250,Brooklyn
250,482,W 15 St & 7 Ave,40.73935542,-73.99931783,2013,251,Manhattan
251,483,E 12 St & 3 Ave,40.73223272,-73.98889957,2013,252,Manhattan
252,484,W 44 St & 5 Ave,40.75500254,-73.98014437,2013,253,Manhattan
253,485,W 37 St & 5 Ave,40.75038009,-73.98338988,2013,254,Manhattan
254,486,Broadway & W 29 St,40.7462009,-73.98855723,2013,255,Manhattan
255,487,E 20 St & FDR Drive,40.73314259,-73.97573881,2013,256,Manhattan
256,488,W 39 St & 9 Ave,40.75645824,-73.99372222,2013,257,Manhattan
257,489,10 Ave & W 28 St,40.75066386,-74.00176802,2013,258,Manhattan
258,490,8 Ave & W 33 St,40.751551,-73.993934,2013,259,Manhattan
259,491,E 24 St & Park Ave S,40.74096374,-73.98602213,2013,260,Manhattan
260,492,W 33 St & 7 Ave,40.75019995,-73.99093085,2013,261,Manhattan
261,493,W 45 St & 6 Ave,40.7568001,-73.98291153,2013,262,Manhattan
262,494,W 26 St & 8 Ave,40.74734825,-73.99723551,2013,263,Manhattan
263,495,W 47 St & 10 Ave,40.76269882,-73.99301222,2013,264,Manhattan
264,496,E 16 St & 5 Ave,40.73726186,-73.99238967,2013,265,Manhattan
265,497,E 17 St & Broadway,40.73704984,-73.99009296,2013,266,Manhattan
266,498,Broadway & W 32 St,40.74854862,-73.98808416,2013,267,Manhattan
267,499,Broadway & W 60 St,40.76915505,-73.98191841,2013,268,Manhattan
268,500,Broadway & W 51 St,40.76228826,-73.98336183,2013,269,Manhattan
269,501,FDR Drive & E 35 St,40.744219,-73.97121214,2013,270,New York County
270,502,Henry St & Grand St,40.714215,-73.981346,2013,271,Manhattan
271,503,E 20 St & Park Ave,40.73827428,-73.98751968,2013,272,Manhattan
272,504,1 Ave & E 15 St,40.73221853,-73.98165557,2013,273,Manhattan
273,505,6 Ave & W 33 St,40.74901271,-73.98848395,2013,274,Manhattan
274,507,E 25 St & 2 Ave,40.73912601,-73.97973776,2013,275,Manhattan
275,508,W 46 St & 11 Ave,40.76341379,-73.99667444,2013,276,Manhattan
276,509,9 Ave & W 22 St,40.7454973,-74.00197139,2013,277,Manhattan
277,510,W 51 St & 6 Ave,40.7606597,-73.98042047,2013,278,Manhattan
278,511,E 14 St & Avenue B,40.72938685,-73.97772429,2013,279,Manhattan
279,512,W 29 St & 9 Ave,40.7500727,-73.99839279,2013,280,Manhattan
280,513,W 56 St & 10 Ave,40.768254,-73.988639,2013,281,Manhattan
281,514,12 Ave & W 40 St,40.76087502,-74.00277668,2013,282,New York
282,515,W 43 St & 10 Ave,40.76009437,-73.99461843,2013,283,Manhattan
283,516,E 47 St & 1 Ave,40.75206862,-73.96784384,2013,284,Manhattan
284,517,Pershing Square South,40.751581,-73.97791,2013,285,Manhattan
285,518,E 39 St & 2 Ave,40.74780373,-73.9734419,2013,286,Manhattan
286,519,Pershing Square North,40.751873,-73.977706,2013,287,Manhattan
287,520,W 52 St & 5 Ave,40.75992262,-73.97648516,2013,288,Manhattan
288,521,8 Ave & W 31 St,40.7509673487,-73.9944420755,2013,289,Manhattan
289,522,E 51 St & Lexington Ave,40.75714758,-73.97207836,2013,290,Midtown East
290,523,W 38 St & 8 Ave,40.75466591,-73.99138152,2013,291,Manhattan
291,524,W 43 St & 6 Ave,40.75527307,-73.98316936,2013,292,Manhattan
292,525,W 34 St & 11 Ave,40.75594159,-74.0021163,2013,293,Manhattan
293,526,E 33 St & 5 Ave,40.74765947,-73.98490707,2013,294,Manhattan
294,527,E 33 St & 2 Ave,40.744023,-73.976056,2013,295,Manhattan
295,528,2 Ave & E 31 St,40.74290902,-73.97706058,2013,296,Manhattan
296,529,W 42 St & 8 Ave,40.7575699,-73.99098507,2013,297,Manhattan
297,530,11 Ave & W 59 St,40.771522,-73.990541,2013,298,Manhattan
298,531,Forsyth St & Broome St,40.71893904,-73.99266288,2013,299,New York
299,532,S 5 Pl & S 4 St,40.710451,-73.960876,2013,300,Kings County
300,533,Broadway & W 39 St,40.75299641,-73.98721619,2013,301,Manhattan
301,534,Water - Whitehall Plaza,40.70255065,-74.0127234,2013,302,Manhattan
302,536,1 Ave & E 30 St,40.74144387,-73.97536082,2013,303,Manhattan
303,537,Lexington Ave & E 24 St,40.74025878,-73.98409214,2013,304,Manhattan
304,539,Metropolitan Ave & Bedford Ave,40.71534825,-73.96024116,2013,305,Brooklyn
305,540,Lexington Ave & E 29 St,40.7431155538,-73.9821535349,2013,306,Manhattan
306,545,E 23 St & 1 Ave,40.736502,-73.97809472,2013,307,Manhattan
307,546,E 30 St & Park Ave S,40.74444921,-73.98303529,2013,308,Manhattan
308,2000,Front St & Washington St,40.70255088,-73.98940236,2013,309,Brooklyn
309,2001,Sands St & Navy St,40.699773,-73.979927,2013,310,NY
310,2002,Wythe Ave & Metropolitan Ave,40.716887,-73.963198,2013,311,Brooklyn
311,2003,1 Ave & E 18 St,40.733812192,-73.9805442095,2013,312,Manhattan
312,2004,6 Ave & Broome St,40.724399,-74.004704,2013,313,Manhattan
313,2005,Railroad Ave & Kay Ave,40.70531194,-73.97100056,2013,314,NY
314,2006,Central Park S & 6 Ave,40.76590936,-73.97634151,2013,315,New York
315,2008,Little West St & 1 Pl,40.70569254,-74.01677685,2013,316,Manhattan
316,2009,Catherine St & Monroe St,40.71117444,-73.99682619,2013,317,Manhattan
317,2010,Grand St & Greene St,40.72165481,-74.00234737,2013,318,Manhattan
318,2012,E 27 St & 1 Ave,40.739445,-73.976806,2013,319,Manhattan
319,2017,E 43 St & 2 Ave,40.75022392,-73.97121414,2013,320,Manhattan
320,2021,W 45 St & 8 Ave,40.75929124,-73.98859651,2013,321,Manhattan
321,2022,E 60 St & York Ave,40.759107,-73.959223,2013,322,Manhattan
322,2023,E 55 St & Lexington Ave,40.75968085,-73.97031366,2013,323,Manhattan
323,3002,South End Ave & Liberty St,40.711512,-74.015756,2013,324,Manhattan
324,3016,Kent Ave & N 7 St,40.72073,-73.96126,2015,325,Brooklyn
325,3041,Kingston Ave & Herkimer St,40.67890679,-73.94142771,2015,326,Brooklyn
326,3042,Fulton St & Utica Ave,40.6794268,-73.9298911,2015,327,Brooklyn
327,3043,Lewis Ave & Decatur St,40.6814598,-73.934903,2015,328,Brooklyn
328,3044,Albany Ave & Fulton St,40.6800105,-73.938475,2015,329,Brooklyn
329,3046,Marcus Garvey Blvd & Macon St,40.682601,-73.938037,2015,330,Brooklyn
330,3047,Halsey St & Tompkins Ave,40.6823687,-73.944118,2015,331,Brooklyn
331,3048,Putnam Ave & Nostrand Ave,40.68402,-73.94977,2015,332,Brooklyn
332,3049,Cambridge Pl & Gates Ave,40.68488,-73.96304,2015,333,Brooklyn
333,3050,Putnam Ave & Throop Ave,40.6851532,-73.94111,2015,334,Brooklyn
334,3052,Lewis Ave & Madison St,40.686312,-73.935775,2015,335,Brooklyn
335,3053,Marcy Ave & Lafayette Ave,40.6900815,-73.947915,2015,336,Brooklyn
336,3054,Greene Ave & Throop Ave,40.6894932,-73.942061,2015,337,Brooklyn
337,3055,Greene Ave & Nostrand Ave,40.6883337,-73.950916,2015,338,Brooklyn
338,3056,Kosciuszko St & Nostrand Ave,40.69072549,-73.95133465,2015,339,Brooklyn
339,3057,Kosciuszko St & Tompkins Ave,40.69128258,-73.9452416,2015,340,Brooklyn
340,3058,Lewis Ave & Kosciuszko St,40.69237074,-73.93705428,2015,341,Brooklyn
341,3059,Pulaski St & Marcus Garvey Blvd,40.6933982,-73.939877,2015,342,Brooklyn
342,3060,Willoughby Ave & Tompkins Ave,40.69425403,-73.94626915,2015,343,Brooklyn
343,3061,Throop Ave & Myrtle Ave,40.69622937,-73.94371094,2015,344,Brooklyn
344,3062,Myrtle Ave & Marcy Ave,40.69539817,-73.94954908,2015,345,Brooklyn
345,3063,Nostrand Ave & Myrtle Ave,40.69527008,-73.95238108,2015,346,Brooklyn
346,3064,Myrtle Ave & Lewis Ave,40.69681963,-73.93756926,2015,347,Brooklyn
347,3065,Union Ave & Wallabout St,40.70029511,-73.95032283,2015,348,Brooklyn
348,3066,Tompkins Ave & Hopkins St,40.69957608,-73.94708417,2015,349,Brooklyn
349,3067,Broadway & Whipple St,40.7016657,-73.9437303,2015,350,Brooklyn
350,3068,Humboldt St & Varet St,40.7031724,-73.940636,2015,351,Brooklyn
351,3069,Lorimer St & Broadway,40.70411791,-73.94818595,2015,352,Brooklyn
352,3070,McKibbin St & Manhattan Ave,40.70510918,-73.94407279,2015,353,Brooklyn
353,3071,Boerum St & Broadway,40.70538077,-73.94976519,2015,354,Brooklyn
354,3072,Leonard St & Boerum St,40.70583339,-73.94644578,2015,355,Brooklyn
355,3073,Division Ave & Hooper St,40.70691254,-73.95441667,2015,356,Brooklyn
356,3074,Montrose Ave & Bushwick Ave,40.70767788,-73.94016171,2015,357,Brooklyn
357,3075,Division Ave & Marcy Ave,40.70708701,-73.95796783,2015,358,Kings County
358,3076,Scholes St & Manhattan Ave,40.70870368,-73.9448625,2015,359,Brooklyn
359,3077,Stagg St & Union Ave,40.70877084,-73.95095259,2015,360,Kings County
360,3078,Broadway & Roebling St,40.70925562,-73.95982218,2015,361,Brooklyn
361,3079,Leonard St & Grand St,40.71103537,-73.94714303,2015,362,Brooklyn
362,3080,S 4 St & Rodney St,40.70934,-73.95608,2015,363,Brooklyn
363,3081,Graham Ave & Grand St,40.711863,-73.944024,2015,364,Brooklyn
364,3082,Hope St & Union Ave,40.71167351,-73.95141312,2015,365,Brooklyn
365,3083,Bushwick Ave & Powers St,40.71247661,-73.94100005,2015,366,Brooklyn
366,3084,Devoe St & Leonard St,40.71348658,-73.94792458,2015,367,Brooklyn
367,3085,Roebling St & N 4 St,40.71469,-73.95739,2015,368,Brooklyn
368,3086,Graham Ave & Conselyea St,40.715143,-73.944507,2015,369,Brooklyn
369,3087,Metropolitan Ave & Meeker Ave,40.71413311,-73.95234386,2015,370,Brooklyn
370,3088,Union Ave & Jackson St,40.7160751,-73.952029,2015,371,Brooklyn
371,3089,Leonard St & Meeker Ave,40.7173184039,-73.9482021332,2015,372,Brooklyn
372,3090,N 8 St & Driggs Ave,40.71774592,-73.95600096,2015,373,Brooklyn
373,3091,Frost St & Meeker St,40.71764,-73.94882,2015,374,Brooklyn
374,3092,Berry St & N 8 St,40.7190095,-73.95852515,2015,375,Brooklyn
375,3093,N 6 St & Bedford Ave,40.71745169,-73.95850939,2015,376,Brooklyn
376,3094,Graham Ave & Withers St,40.7169811,-73.94485918,2015,377,Brooklyn
377,3095,Graham Ave & Herbert St,40.71929301,-73.94500379,2015,378,Brooklyn
378,3096,Union Ave & N 12 St,40.71924,-73.95242,2015,379,Brooklyn
379,3097,N Henry St & Richardson St,40.71921585,-73.9424469,2015,380,Brooklyn
380,3098,Leonard St & Bayard St,40.71928,-73.94861,2015,381,Brooklyn
381,3099,Leonard St & Manhattan Ave,40.7215224034,-73.948982656,2015,382,Brooklyn
382,3100,Nassau Ave & Newell St,40.72481,-73.94753,2015,383,Brooklyn
383,3101,N 12 St & Bedford Ave,40.72079821,-73.95484712,2015,384,Brooklyn
384,3102,Driggs Ave & Lorimer St,40.72179134,-73.9504154,2015,385,Brooklyn
385,3103,N 11 St & Wythe Ave,40.72153267,-73.95782357,2015,386,Brooklyn
386,3104,Kent Ave & N 7 St,40.72057658,-73.96150225,2015,387,Brooklyn
387,3105,N 15 St & Wythe Ave,40.724055,-73.955736,2015,388,Brooklyn
388,3106,Driggs Ave & N Henry St,40.72325,-73.94308,2015,389,Brooklyn
389,3107,Bedford Ave & Nassau Ave,40.72311651,-73.95212324,2015,390,Brooklyn
390,3108,Nassau Ave & Russell St,40.72557,-73.94434,2015,391,Brooklyn
391,3109,Banker St & Meserole Ave,40.72606,-73.95621,2015,392,Brooklyn
392,3110,Meserole Ave & Manhattan Ave,40.72708584,-73.95299117,2015,393,Brooklyn
393,3111,Norman Ave & Leonard St,40.7258483,-73.95064893,2015,394,Brooklyn
394,3112,Milton St & Franklin St,40.72906,-73.95779,2015,395,Brooklyn
395,3113,Greenpoint Ave & Manhattan Ave,40.73026,-73.95394,2015,396,Brooklyn
396,3114,India St & East River,40.73165141,-73.96161892,2015,397,Brooklyn
397,3115,India St & Manhattan Ave,40.73232194,-73.9550858,2015,398,Brooklyn
398,3116,Huron St & Franklin St,40.73266,-73.95826,2015,399,Brooklyn
399,3117,Franklin St & Dupont St,40.73564,-73.95866,2015,400,Brooklyn
400,3118,McGuinness Blvd & Eagle St,40.73555,-73.95284,2015,401,Brooklyn
401,3119,Vernon Blvd & 50 Ave,40.74232744,-73.95411749,2015,402,Queens
402,3120,Center Blvd & Borden Ave,40.74161,-73.96044,2015,403,Queens County
403,3121,Jackson Ave & 46 Rd,40.74524768,-73.94733276,2015,404,Queens
404,3122,48 Ave & 5 St,40.7443632871,-73.955873251,2015,405,Queens
405,3123,31 St & Thomson Ave,40.74469738,-73.93540375,2015,406,Queens
406,3124,46 Ave & 5 St,40.74731,-73.95451,2015,407,Queens
407,3125,45 Rd & 11 St,40.74708586,-73.94977234,2015,408,Queens
408,3126,44 Dr & Jackson Ave,40.74718234,-73.9432635,2015,409,Queens
409,3127,9 St & 44 Rd,40.74966,-73.9521,2015,410,Queens
410,3128,21 St & 43 Ave,40.75052534,-73.94594845,2015,411,Queens
411,3129,Queens Plaza North & Crescent St,40.75110165,-73.94073717,2015,412,Queens
412,3132,E 59 St & Madison Ave,40.76350532,-73.97109243,2015,413,Manhattan
413,3134,3 Ave & E 62 St,40.76312584,-73.96526895,2015,414,Manhattan
414,3135,E 75 St & 3 Ave,40.77112927,-73.95772297,2015,415,Manhattan
415,3136,5 Ave & E 63 St,40.76650452,-73.97147595,2015,416,Manhattan
416,3137,5 Ave & E 73 St,40.77282817,-73.96685276,2015,417,Manhattan
417,3138,E 77 St & Park Ave,40.774405455,-73.9617526531,2015,418,Manhattan
418,3139,E 72 St & Park Ave,40.7711828754,-73.9640942216,2015,419,Manhattan
419,3140,1 Ave & E 78 St,40.77140426,-73.9535166,2015,420,Manhattan
420,3141,1 Ave & E 68 St,40.76500525,-73.95818491,2015,421,Manhattan
421,3142,1 Ave & E 62 St,40.7612274,-73.96094022,2015,422,Manhattan
422,3143,5 Ave & E 78 St,40.7768286344,-73.9638876915,2015,423,Manhattan
423,3144,E 81 St & Park Ave,40.77677702,-73.9590097,2015,424,Manhattan
424,3145,E 84 St & Park Ave,40.77862688,-73.95772073,2015,425,Manhattan
425,3146,E 81 St & 3 Ave,40.77573034,-73.9567526,2015,426,Manhattan
426,3147,E 85 St & 3 Ave,40.77801203,-73.95407149,2015,427,Manhattan
427,3148,E 84 St & 1 Ave,40.77565541,-73.95068615,2015,428,Manhattan
428,3150,E 85 St & York Ave,40.77536905,-73.94803392,2015,429,Manhattan
429,3151,E 81 St & York Ave,40.7728384,-73.94989233,2015,430,Manhattan
430,3153,E 71 St & 2 Ave,40.7681754674,-73.9591026306,2015,431,Manhattan
431,3154,E 77 St & 3 Ave,40.77314236,-73.95856158,2015,432,Manhattan
432,3155,Lexington Ave & E 63 St,40.76440023,-73.96648977,2015,433,Manhattan
433,3156,E 72 St & York Ave,40.76663814,-73.95348296,2015,434,Manhattan
434,3157,East End Ave & E 86 St,40.77518615,-73.94446054,2015,435,Manhattan
435,3158,W 63 St & Broadway,40.77163851,-73.98261428,2015,436,Manhattan
436,3159,W 67 St & Broadway,40.77492513,-73.98266566,2015,437,Manhattan
437,3160,Central Park West & W 76 St,40.77896784,-73.97374737,2015,438,New York
438,3161,W 76 St & Columbus Ave,40.7801839724,-73.9772853255,2015,439,Manhattan
439,3162,W 78 St & Broadway,40.78339981,-73.98093133,2015,440,Manhattan
440,3163,Central Park West & W 68 St,40.7734066,-73.97782542,2015,441,Manhattan
441,3164,Columbus Ave & W 72 St,40.7770575,-73.97898475,2015,442,Manhattan
442,3165,Central Park West & W 72 St,40.7757937668,-73.9762057364,2015,443,Manhattan
443,3166,Riverside Dr & W 72 St,40.7805779901,-73.9856243134,2015,444,Manhattan
444,3167,Amsterdam Ave & W 73 St,40.7796680901,-73.9809304476,2015,445,Manhattan
445,3168,Central Park West & W 85 St,40.78472675,-73.96961715,2015,446,Manhattan
446,3169,Riverside Dr & W 82 St,40.78720869,-73.98128127,2015,447,Manhattan
447,3170,W 84 St & Columbus Ave,40.78499979,-73.97283406,2015,448,Manhattan
448,3171,Amsterdam Ave & W 82 St,40.78524672,-73.97667321,2015,449,Manhattan
449,3172,W 74 St & Columbus Ave,40.7785669,-73.97754961,2015,450,Manhattan
450,3173,Riverside Blvd & W 67 St,40.7775070275,-73.9888858795,2015,451,Manhattan
451,3175,W 70 St & Amsterdam Ave,40.77748046,-73.98288594,2015,452,Manhattan
452,3176,W 64 St & West End Ave,40.77452835,-73.98753759,2015,453,Manhattan
453,3177,W 84 St & Broadway,40.7867947,-73.977112,2015,454,Manhattan
454,3178,Riverside Dr & W 78 St,40.78414472,-73.98362492,2015,455,Manhattan
455,3179,Park Ave & Marcus Garvey Blvd,40.698617,-73.941342,2015,456,Brooklyn
456,3180,Brooklyn Bridge Park - Pier 2,40.69878,-73.99712,2015,457,Kings County
457,3221,47 Ave & 31 St,40.743,-73.93561,2015,458,Queens
458,3222,Hanson Pl & St Felix St,40.6851595999,-73.9771136642,2015,459,Brooklyn
459,3223,E 55 St & 3 Ave,40.7589965596,-73.9686539769,2015,460,Manhattan
460,3224,W 13 St & Hudson St,40.739973541,-74.005138725,2015,461,Manhattan
461,3226,W 82 St & Central Park West,40.78275,-73.97137,2015,462,Manhattan
462,3229,Marcy Ave & MacDonough St,40.6806176846,-73.946249485,2015,463,Brooklyn
463,3230,Penn Station Valet,40.751283597,-73.9969244599,2015,464,Manhattan
464,3231,E 67 St & Park Ave,40.7678008015,-73.9659208059,2015,465,Manhattan
465,3232,Bond St & Fulton St,40.6896218879,-73.9830426872,2015,466,Brooklyn
466,3233,E 48 St & 5 Ave,40.7572456791,-73.9780591428,2015,467,Manhattan
467,3234,E 40 St & Madison Ave,40.7515936845,-73.9804315567,2015,468,Manhattan
468,3235,E 41 St & Madison Ave,40.7521652806,-73.979921937,2015,469,Manhattan
469,3236,PABT Valet,40.758984814,-73.9937996864,2015,470,Manhattan
470,3237,21 St & 41 Ave,40.7538334344,-73.9426767826,2015,471,Queens
471,3238,E 80 St & 2 Ave,40.7739139024,-73.9543953538,2015,472,Manhattan
472,3241,Monroe St & Tompkins Ave,40.686203,-73.944694,2015,473,Brooklyn
473,3242,Schermerhorn St & Court St,40.6910292568,-73.9918336272,2015,474,Brooklyn
474,3243,E 58 St & 1 Ave,40.7589238638,-73.9622622728,2015,475,Manhattan
475,3244,University Pl & E 8 St,40.7314372409,-73.9949034154,2015,476,Manhattan
476,3246,Montague St & Clinton St,40.69428,-73.9923,2015,477,Brooklyn
